{
  "export_time": "2025-11-04 13:11:06",
  "total_count": 150,
  "statistics": {
    "total_towns": 150,
    "by_province": {
      "河北省": 54,
      "北京市": 48,
      "天津市": 48
    },
    "by_type": {
      "镇": 150
    },
    "with_coordinates": 150,
    "average_quality": 0.7
  },
  "towns": [
    {
      "code": "110101002",
      "name": "中心镇",
      "parent_code": "110101",
      "parent_name": "东城区",
      "level": 4,
      "longitude": 116.4168,
      "latitude": 39.9284,
      "province": "北京市",
      "city": "北京市",
      "district": "东城区",
      "town_type": "镇",
      "population": null,
      "area_km2": null,
      "aliases": null,
      "data_source": "generated_sample",
      "data_quality": 0.7
    },
    {
      "code": "110101001",
      "name": "城关镇",
      "parent_code": "110101",
      "parent_name": "东城区",
      "level": 4,
      "longitude": 116.40679999999999,
      "latitude": 39.918400000000005,
      "province": "北京市",
      "city": "北京市",
      "district": "东城区",
      "town_type": "镇",
      "population": null,
      "area_km2": null,
      "aliases": null,
      "data_source": "generated_sample",
      "data_quality": 0.7
    },
    {
      "code": "110101003",
      "name": "新城镇",
      "parent_code": "110101",
      "parent_name": "东城区",
      "level": 4,
      "longitude": 116.4268,
      "latitude": 39.9384,
      "province": "北京市",
      "city": "北京市",
      "district": "东城区",
      "town_type": "镇",
      "population": null,
      "area_km2": null,
      "aliases": null,
      "data_source": "generated_sample",
      "data_quality": 0.7
    },
    {
      "code": "110106002",
      "name": "中心镇",
      "parent_code": "110106",
      "parent_name": "丰台区",
      "level": 4,
      "longitude": 104.1954,
      "latitude": 35.8617,
      "province": "北京市",
      "city": "北京市",
      "district": "丰台区",
      "town_type": "镇",
      "population": null,
      "area_km2": null,
      "aliases": null,
      "data_source": "generated_sample",
      "data_quality": 0.7
    },
    {
      "code": "110106001",
      "name": "城关镇",
      "parent_code": "110106",
      "parent_name": "丰台区",
      "level": 4,
      "longitude": 104.1854,
      "latitude": 35.8517,
      "province": "北京市",
      "city": "北京市",
      "district": "丰台区",
      "town_type": "镇",
      "population": null,
      "area_km2": null,
      "aliases": null,
      "data_source": "generated_sample",
      "data_quality": 0.7
    },
    {
      "code": "110106003",
      "name": "新城镇",
      "parent_code": "110106",
      "parent_name": "丰台区",
      "level": 4,
      "longitude": 104.20540000000001,
      "latitude": 35.8717,
      "province": "北京市",
      "city": "北京市",
      "district": "丰台区",
      "town_type": "镇",
      "population": null,
      "area_km2": null,
      "aliases": null,
      "data_source": "generated_sample",
      "data_quality": 0.7
    },
    {
      "code": "110115002",
      "name": "中心镇",
      "parent_code": "110115",
      "parent_name": "大兴区",
      "level": 4,
      "longitude": 104.1954,
      "latitude": 35.8617,
      "province": "北京市",
      "city": "北京市",
      "district": "大兴区",
      "town_type": "镇",
      "population": null,
      "area_km2": null,
      "aliases": null,
      "data_source": "generated_sample",
      "data_quality": 0.7
    },
    {
      "code": "110115001",
      "name": "城关镇",
      "parent_code": "110115",
      "parent_name": "大兴区",
      "level": 4,
      "longitude": 104.1854,
      "latitude": 35.8517,
      "province": "北京市",
      "city": "北京市",
      "district": "大兴区",
      "town_type": "镇",
      "population": null,
      "area_km2": null,
      "aliases": null,
      "data_source": "generated_sample",
      "data_quality": 0.7
    },
    {
      "code": "110115003",
      "name": "新城镇",
      "parent_code": "110115",
      "parent_name": "大兴区",
      "level": 4,
      "longitude": 104.20540000000001,
      "latitude": 35.8717,
      "province": "北京市",
      "city": "北京市",
      "district": "大兴区",
      "town_type": "镇",
      "population": null,
      "area_km2": null,
      "aliases": null,
      "data_source": "generated_sample",
      "data_quality": 0.7
    },
    {
      "code": "110118002",
      "name": "中心镇",
      "parent_code": "110118",
      "parent_name": "密云区",
      "level": 4,
      "longitude": 104.1954,
      "latitude": 35.8617,
      "province": "北京市",
      "city": "北京市",
      "district": "密云区",
      "town_type": "镇",
      "population": null,
      "area_km2": null,
      "aliases": null,
      "data_source": "generated_sample",
      "data_quality": 0.7
    },
    {
      "code": "110118001",
      "name": "城关镇",
      "parent_code": "110118",
      "parent_name": "密云区",
      "level": 4,
      "longitude": 104.1854,
      "latitude": 35.8517,
      "province": "北京市",
      "city": "北京市",
      "district": "密云区",
      "town_type": "镇",
      "population": null,
      "area_km2": null,
      "aliases": null,
      "data_source": "generated_sample",
      "data_quality": 0.7
    },
    {
      "code": "110118003",
      "name": "新城镇",
      "parent_code": "110118",
      "parent_name": "密云区",
      "level": 4,
      "longitude": 104.20540000000001,
      "latitude": 35.8717,
      "province": "北京市",
      "city": "北京市",
      "district": "密云区",
      "town_type": "镇",
      "population": null,
      "area_km2": null,
      "aliases": null,
      "data_source": "generated_sample",
      "data_quality": 0.7
    },
    {
      "code": "110117002",
      "name": "中心镇",
      "parent_code": "110117",
      "parent_name": "平谷区",
      "level": 4,
      "longitude": 104.1954,
      "latitude": 35.8617,
      "province": "北京市",
      "city": "北京市",
      "district": "平谷区",
      "town_type": "镇",
      "population": null,
      "area_km2": null,
      "aliases": null,
      "data_source": "generated_sample",
      "data_quality": 0.7
    },
    {
      "code": "110117001",
      "name": "城关镇",
      "parent_code": "110117",
      "parent_name": "平谷区",
      "level": 4,
      "longitude": 104.1854,
      "latitude": 35.8517,
      "province": "北京市",
      "city": "北京市",
      "district": "平谷区",
      "town_type": "镇",
      "population": null,
      "area_km2": null,
      "aliases": null,
      "data_source": "generated_sample",
      "data_quality": 0.7
    },
    {
      "code": "110117003",
      "name": "新城镇",
      "parent_code": "110117",
      "parent_name": "平谷区",
      "level": 4,
      "longitude": 104.20540000000001,
      "latitude": 35.8717,
      "province": "北京市",
      "city": "北京市",
      "district": "平谷区",
      "town_type": "镇",
      "population": null,
      "area_km2": null,
      "aliases": null,
      "data_source": "generated_sample",
      "data_quality": 0.7
    },
    {
      "code": "110119002",
      "name": "中心镇",
      "parent_code": "110119",
      "parent_name": "延庆区",
      "level": 4,
      "longitude": 104.1954,
      "latitude": 35.8617,
      "province": "北京市",
      "city": "北京市",
      "district": "延庆区",
      "town_type": "镇",
      "population": null,
      "area_km2": null,
      "aliases": null,
      "data_source": "generated_sample",
      "data_quality": 0.7
    },
    {
      "code": "110119001",
      "name": "城关镇",
      "parent_code": "110119",
      "parent_name": "延庆区",
      "level": 4,
      "longitude": 104.1854,
      "latitude": 35.8517,
      "province": "北京市",
      "city": "北京市",
      "district": "延庆区",
      "town_type": "镇",
      "population": null,
      "area_km2": null,
      "aliases": null,
      "data_source": "generated_sample",
      "data_quality": 0.7
    },
    {
      "code": "110119003",
      "name": "新城镇",
      "parent_code": "110119",
      "parent_name": "延庆区",
      "level": 4,
      "longitude": 104.20540000000001,
      "latitude": 35.8717,
      "province": "北京市",
      "city": "北京市",
      "district": "延庆区",
      "town_type": "镇",
      "population": null,
      "area_km2": null,
      "aliases": null,
      "data_source": "generated_sample",
      "data_quality": 0.7
    },
    {
      "code": "110116002",
      "name": "中心镇",
      "parent_code": "110116",
      "parent_name": "怀柔区",
      "level": 4,
      "longitude": 104.1954,
      "latitude": 35.8617,
      "province": "北京市",
      "city": "北京市",
      "district": "怀柔区",
      "town_type": "镇",
      "population": null,
      "area_km2": null,
      "aliases": null,
      "data_source": "generated_sample",
      "data_quality": 0.7
    },
    {
      "code": "110116001",
      "name": "城关镇",
      "parent_code": "110116",
      "parent_name": "怀柔区",
      "level": 4,
      "longitude": 104.1854,
      "latitude": 35.8517,
      "province": "北京市",
      "city": "北京市",
      "district": "怀柔区",
      "town_type": "镇",
      "population": null,
      "area_km2": null,
      "aliases": null,
      "data_source": "generated_sample",
      "data_quality": 0.7
    },
    {
      "code": "110116003",
      "name": "新城镇",
      "parent_code": "110116",
      "parent_name": "怀柔区",
      "level": 4,
      "longitude": 104.20540000000001,
      "latitude": 35.8717,
      "province": "北京市",
      "city": "北京市",
      "district": "怀柔区",
      "town_type": "镇",
      "population": null,
      "area_km2": null,
      "aliases": null,
      "data_source": "generated_sample",
      "data_quality": 0.7
    },
    {
      "code": "110111002",
      "name": "中心镇",
      "parent_code": "110111",
      "parent_name": "房山区",
      "level": 4,
      "longitude": 104.1954,
      "latitude": 35.8617,
      "province": "北京市",
      "city": "北京市",
      "district": "房山区",
      "town_type": "镇",
      "population": null,
      "area_km2": null,
      "aliases": null,
      "data_source": "generated_sample",
      "data_quality": 0.7
    },
    {
      "code": "110111001",
      "name": "城关镇",
      "parent_code": "110111",
      "parent_name": "房山区",
      "level": 4,
      "longitude": 104.1854,
      "latitude": 35.8517,
      "province": "北京市",
      "city": "北京市",
      "district": "房山区",
      "town_type": "镇",
      "population": null,
      "area_km2": null,
      "aliases": null,
      "data_source": "generated_sample",
      "data_quality": 0.7
    },
    {
      "code": "110111003",
      "name": "新城镇",
      "parent_code": "110111",
      "parent_name": "房山区",
      "level": 4,
      "longitude": 104.20540000000001,
      "latitude": 35.8717,
      "province": "北京市",
      "city": "北京市",
      "district": "房山区",
      "town_type": "镇",
      "population": null,
      "area_km2": null,
      "aliases": null,
      "data_source": "generated_sample",
      "data_quality": 0.7
    },
    {
      "code": "110114002",
      "name": "中心镇",
      "parent_code": "110114",
      "parent_name": "昌平区",
      "level": 4,
      "longitude": 104.1954,
      "latitude": 35.8617,
      "province": "北京市",
      "city": "北京市",
      "district": "昌平区",
      "town_type": "镇",
      "population": null,
      "area_km2": null,
      "aliases": null,
      "data_source": "generated_sample",
      "data_quality": 0.7
    },
    {
      "code": "110114001",
      "name": "城关镇",
      "parent_code": "110114",
      "parent_name": "昌平区",
      "level": 4,
      "longitude": 104.1854,
      "latitude": 35.8517,
      "province": "北京市",
      "city": "北京市",
      "district": "昌平区",
      "town_type": "镇",
      "population": null,
      "area_km2": null,
      "aliases": null,
      "data_source": "generated_sample",
      "data_quality": 0.7
    },
    {
      "code": "110114003",
      "name": "新城镇",
      "parent_code": "110114",
      "parent_name": "昌平区",
      "level": 4,
      "longitude": 104.20540000000001,
      "latitude": 35.8717,
      "province": "北京市",
      "city": "北京市",
      "district": "昌平区",
      "town_type": "镇",
      "population": null,
      "area_km2": null,
      "aliases": null,
      "data_source": "generated_sample",
      "data_quality": 0.7
    },
    {
      "code": "110105002",
      "name": "中心镇",
      "parent_code": "110105",
      "parent_name": "朝阳区",
      "level": 4,
      "longitude": 116.4436,
      "latitude": 39.9217,
      "province": "北京市",
      "city": "北京市",
      "district": "朝阳区",
      "town_type": "镇",
      "population": null,
      "area_km2": null,
      "aliases": null,
      "data_source": "generated_sample",
      "data_quality": 0.7
    },
    {
      "code": "110105001",
      "name": "城关镇",
      "parent_code": "110105",
      "parent_name": "朝阳区",
      "level": 4,
      "longitude": 116.4336,
      "latitude": 39.9117,
      "province": "北京市",
      "city": "北京市",
      "district": "朝阳区",
      "town_type": "镇",
      "population": null,
      "area_km2": null,
      "aliases": null,
      "data_source": "generated_sample",
      "data_quality": 0.7
    },
    {
      "code": "110105003",
      "name": "新城镇",
      "parent_code": "110105",
      "parent_name": "朝阳区",
      "level": 4,
      "longitude": 116.45360000000001,
      "latitude": 39.9317,
      "province": "北京市",
      "city": "北京市",
      "district": "朝阳区",
      "town_type": "镇",
      "population": null,
      "area_km2": null,
      "aliases": null,
      "data_source": "generated_sample",
      "data_quality": 0.7
    },
    {
      "code": "110108002",
      "name": "中心镇",
      "parent_code": "110108",
      "parent_name": "海淀区",
      "level": 4,
      "longitude": 116.2982,
      "latitude": 39.9599,
      "province": "北京市",
      "city": "北京市",
      "district": "海淀区",
      "town_type": "镇",
      "population": null,
      "area_km2": null,
      "aliases": null,
      "data_source": "generated_sample",
      "data_quality": 0.7
    },
    {
      "code": "110108001",
      "name": "城关镇",
      "parent_code": "110108",
      "parent_name": "海淀区",
      "level": 4,
      "longitude": 116.28819999999999,
      "latitude": 39.9499,
      "province": "北京市",
      "city": "北京市",
      "district": "海淀区",
      "town_type": "镇",
      "population": null,
      "area_km2": null,
      "aliases": null,
      "data_source": "generated_sample",
      "data_quality": 0.7
    },
    {
      "code": "110108003",
      "name": "新城镇",
      "parent_code": "110108",
      "parent_name": "海淀区",
      "level": 4,
      "longitude": 116.3082,
      "latitude": 39.969899999999996,
      "province": "北京市",
      "city": "北京市",
      "district": "海淀区",
      "town_type": "镇",
      "population": null,
      "area_km2": null,
      "aliases": null,
      "data_source": "generated_sample",
      "data_quality": 0.7
    },
    {
      "code": "110107002",
      "name": "中心镇",
      "parent_code": "110107",
      "parent_name": "石景山区",
      "level": 4,
      "longitude": 104.1954,
      "latitude": 35.8617,
      "province": "北京市",
      "city": "北京市",
      "district": "石景山区",
      "town_type": "镇",
      "population": null,
      "area_km2": null,
      "aliases": null,
      "data_source": "generated_sample",
      "data_quality": 0.7
    },
    {
      "code": "110107001",
      "name": "城关镇",
      "parent_code": "110107",
      "parent_name": "石景山区",
      "level": 4,
      "longitude": 104.1854,
      "latitude": 35.8517,
      "province": "北京市",
      "city": "北京市",
      "district": "石景山区",
      "town_type": "镇",
      "population": null,
      "area_km2": null,
      "aliases": null,
      "data_source": "generated_sample",
      "data_quality": 0.7
    },
    {
      "code": "110107003",
      "name": "新城镇",
      "parent_code": "110107",
      "parent_name": "石景山区",
      "level": 4,
      "longitude": 104.20540000000001,
      "latitude": 35.8717,
      "province": "北京市",
      "city": "北京市",
      "district": "石景山区",
      "town_type": "镇",
      "population": null,
      "area_km2": null,
      "aliases": null,
      "data_source": "generated_sample",
      "data_quality": 0.7
    },
    {
      "code": "110102002",
      "name": "中心镇",
      "parent_code": "110102",
      "parent_name": "西城区",
      "level": 4,
      "longitude": 116.3659,
      "latitude": 39.9127,
      "province": "北京市",
      "city": "北京市",
      "district": "西城区",
      "town_type": "镇",
      "population": null,
      "area_km2": null,
      "aliases": null,
      "data_source": "generated_sample",
      "data_quality": 0.7
    },
    {
      "code": "110102001",
      "name": "城关镇",
      "parent_code": "110102",
      "parent_name": "西城区",
      "level": 4,
      "longitude": 116.35589999999999,
      "latitude": 39.9027,
      "province": "北京市",
      "city": "北京市",
      "district": "西城区",
      "town_type": "镇",
      "population": null,
      "area_km2": null,
      "aliases": null,
      "data_source": "generated_sample",
      "data_quality": 0.7
    },
    {
      "code": "110102003",
      "name": "新城镇",
      "parent_code": "110102",
      "parent_name": "西城区",
      "level": 4,
      "longitude": 116.3759,
      "latitude": 39.9227,
      "province": "北京市",
      "city": "北京市",
      "district": "西城区",
      "town_type": "镇",
      "population": null,
      "area_km2": null,
      "aliases": null,
      "data_source": "generated_sample",
      "data_quality": 0.7
    },
    {
      "code": "110112002",
      "name": "中心镇",
      "parent_code": "110112",
      "parent_name": "通州区",
      "level": 4,
      "longitude": 104.1954,
      "latitude": 35.8617,
      "province": "北京市",
      "city": "北京市",
      "district": "通州区",
      "town_type": "镇",
      "population": null,
      "area_km2": null,
      "aliases": null,
      "data_source": "generated_sample",
      "data_quality": 0.7
    },
    {
      "code": "110112001",
      "name": "城关镇",
      "parent_code": "110112",
      "parent_name": "通州区",
      "level": 4,
      "longitude": 104.1854,
      "latitude": 35.8517,
      "province": "北京市",
      "city": "北京市",
      "district": "通州区",
      "town_type": "镇",
      "population": null,
      "area_km2": null,
      "aliases": null,
      "data_source": "generated_sample",
      "data_quality": 0.7
    },
    {
      "code": "110112003",
      "name": "新城镇",
      "parent_code": "110112",
      "parent_name": "通州区",
      "level": 4,
      "longitude": 104.20540000000001,
      "latitude": 35.8717,
      "province": "北京市",
      "city": "北京市",
      "district": "通州区",
      "town_type": "镇",
      "population": null,
      "area_km2": null,
      "aliases": null,
      "data_source": "generated_sample",
      "data_quality": 0.7
    },
    {
      "code": "110109002",
      "name": "中心镇",
      "parent_code": "110109",
      "parent_name": "门头沟区",
      "level": 4,
      "longitude": 104.1954,
      "latitude": 35.8617,
      "province": "北京市",
      "city": "北京市",
      "district": "门头沟区",
      "town_type": "镇",
      "population": null,
      "area_km2": null,
      "aliases": null,
      "data_source": "generated_sample",
      "data_quality": 0.7
    },
    {
      "code": "110109001",
      "name": "城关镇",
      "parent_code": "110109",
      "parent_name": "门头沟区",
      "level": 4,
      "longitude": 104.1854,
      "latitude": 35.8517,
      "province": "北京市",
      "city": "北京市",
      "district": "门头沟区",
      "town_type": "镇",
      "population": null,
      "area_km2": null,
      "aliases": null,
      "data_source": "generated_sample",
      "data_quality": 0.7
    },
    {
      "code": "110109003",
      "name": "新城镇",
      "parent_code": "110109",
      "parent_name": "门头沟区",
      "level": 4,
      "longitude": 104.20540000000001,
      "latitude": 35.8717,
      "province": "北京市",
      "city": "北京市",
      "district": "门头沟区",
      "town_type": "镇",
      "population": null,
      "area_km2": null,
      "aliases": null,
      "data_source": "generated_sample",
      "data_quality": 0.7
    },
    {
      "code": "110113002",
      "name": "中心镇",
      "parent_code": "110113",
      "parent_name": "顺义区",
      "level": 4,
      "longitude": 104.1954,
      "latitude": 35.8617,
      "province": "北京市",
      "city": "北京市",
      "district": "顺义区",
      "town_type": "镇",
      "population": null,
      "area_km2": null,
      "aliases": null,
      "data_source": "generated_sample",
      "data_quality": 0.7
    },
    {
      "code": "110113001",
      "name": "城关镇",
      "parent_code": "110113",
      "parent_name": "顺义区",
      "level": 4,
      "longitude": 104.1854,
      "latitude": 35.8517,
      "province": "北京市",
      "city": "北京市",
      "district": "顺义区",
      "town_type": "镇",
      "population": null,
      "area_km2": null,
      "aliases": null,
      "data_source": "generated_sample",
      "data_quality": 0.7
    },
    {
      "code": "110113003",
      "name": "新城镇",
      "parent_code": "110113",
      "parent_name": "顺义区",
      "level": 4,
      "longitude": 104.20540000000001,
      "latitude": 35.8717,
      "province": "北京市",
      "city": "北京市",
      "district": "顺义区",
      "town_type": "镇",
      "population": null,
      "area_km2": null,
      "aliases": null,
      "data_source": "generated_sample",
      "data_quality": 0.7
    },
    {
      "code": "120110002",
      "name": "中心镇",
      "parent_code": "120110",
      "parent_name": "东丽区",
      "level": 4,
      "longitude": 104.1954,
      "latitude": 35.8617,
      "province": "天津市",
      "city": "天津市",
      "district": "东丽区",
      "town_type": "镇",
      "population": null,
      "area_km2": null,
      "aliases": null,
      "data_source": "generated_sample",
      "data_quality": 0.7
    },
    {
      "code": "120110001",
      "name": "城关镇",
      "parent_code": "120110",
      "parent_name": "东丽区",
      "level": 4,
      "longitude": 104.1854,
      "latitude": 35.8517,
      "province": "天津市",
      "city": "天津市",
      "district": "东丽区",
      "town_type": "镇",
      "population": null,
      "area_km2": null,
      "aliases": null,
      "data_source": "generated_sample",
      "data_quality": 0.7
    },
    {
      "code": "120110003",
      "name": "新城镇",
      "parent_code": "120110",
      "parent_name": "东丽区",
      "level": 4,
      "longitude": 104.20540000000001,
      "latitude": 35.8717,
      "province": "天津市",
      "city": "天津市",
      "district": "东丽区",
      "town_type": "镇",
      "population": null,
      "area_km2": null,
      "aliases": null,
      "data_source": "generated_sample",
      "data_quality": 0.7
    },
    {
      "code": "120113002",
      "name": "中心镇",
      "parent_code": "120113",
      "parent_name": "北辰区",
      "level": 4,
      "longitude": 104.1954,
      "latitude": 35.8617,
      "province": "天津市",
      "city": "天津市",
      "district": "北辰区",
      "town_type": "镇",
      "population": null,
      "area_km2": null,
      "aliases": null,
      "data_source": "generated_sample",
      "data_quality": 0.7
    },
    {
      "code": "120113001",
      "name": "城关镇",
      "parent_code": "120113",
      "parent_name": "北辰区",
      "level": 4,
      "longitude": 104.1854,
      "latitude": 35.8517,
      "province": "天津市",
      "city": "天津市",
      "district": "北辰区",
      "town_type": "镇",
      "population": null,
      "area_km2": null,
      "aliases": null,
      "data_source": "generated_sample",
      "data_quality": 0.7
    },
    {
      "code": "120113003",
      "name": "新城镇",
      "parent_code": "120113",
      "parent_name": "北辰区",
      "level": 4,
      "longitude": 104.20540000000001,
      "latitude": 35.8717,
      "province": "天津市",
      "city": "天津市",
      "district": "北辰区",
      "town_type": "镇",
      "population": null,
      "area_km2": null,
      "aliases": null,
      "data_source": "generated_sample",
      "data_quality": 0.7
    },
    {
      "code": "120104002",
      "name": "中心镇",
      "parent_code": "120104",
      "parent_name": "南开区",
      "level": 4,
      "longitude": 117.164,
      "latitude": 39.1207,
      "province": "天津市",
      "city": "天津市",
      "district": "南开区",
      "town_type": "镇",
      "population": null,
      "area_km2": null,
      "aliases": null,
      "data_source": "generated_sample",
      "data_quality": 0.7
    },
    {
      "code": "120104001",
      "name": "城关镇",
      "parent_code": "120104",
      "parent_name": "南开区",
      "level": 4,
      "longitude": 117.154,
      "latitude": 39.1107,
      "province": "天津市",
      "city": "天津市",
      "district": "南开区",
      "town_type": "镇",
      "population": null,
      "area_km2": null,
      "aliases": null,
      "data_source": "generated_sample",
      "data_quality": 0.7
    },
    {
      "code": "120104003",
      "name": "新城镇",
      "parent_code": "120104",
      "parent_name": "南开区",
      "level": 4,
      "longitude": 117.174,
      "latitude": 39.1307,
      "province": "天津市",
      "city": "天津市",
      "district": "南开区",
      "town_type": "镇",
      "population": null,
      "area_km2": null,
      "aliases": null,
      "data_source": "generated_sample",
      "data_quality": 0.7
    },
    {
      "code": "120101002",
      "name": "中心镇",
      "parent_code": "120101",
      "parent_name": "和平区",
      "level": 4,
      "longitude": 117.1966,
      "latitude": 39.1187,
      "province": "天津市",
      "city": "天津市",
      "district": "和平区",
      "town_type": "镇",
      "population": null,
      "area_km2": null,
      "aliases": null,
      "data_source": "generated_sample",
      "data_quality": 0.7
    },
    {
      "code": "120101001",
      "name": "城关镇",
      "parent_code": "120101",
      "parent_name": "和平区",
      "level": 4,
      "longitude": 117.1866,
      "latitude": 39.1087,
      "province": "天津市",
      "city": "天津市",
      "district": "和平区",
      "town_type": "镇",
      "population": null,
      "area_km2": null,
      "aliases": null,
      "data_source": "generated_sample",
      "data_quality": 0.7
    },
    {
      "code": "120101003",
      "name": "新城镇",
      "parent_code": "120101",
      "parent_name": "和平区",
      "level": 4,
      "longitude": 117.20660000000001,
      "latitude": 39.128699999999995,
      "province": "天津市",
      "city": "天津市",
      "district": "和平区",
      "town_type": "镇",
      "population": null,
      "area_km2": null,
      "aliases": null,
      "data_source": "generated_sample",
      "data_quality": 0.7
    },
    {
      "code": "120117002",
      "name": "中心镇",
      "parent_code": "120117",
      "parent_name": "宁河区",
      "level": 4,
      "longitude": 104.1954,
      "latitude": 35.8617,
      "province": "天津市",
      "city": "天津市",
      "district": "宁河区",
      "town_type": "镇",
      "population": null,
      "area_km2": null,
      "aliases": null,
      "data_source": "generated_sample",
      "data_quality": 0.7
    },
    {
      "code": "120117001",
      "name": "城关镇",
      "parent_code": "120117",
      "parent_name": "宁河区",
      "level": 4,
      "longitude": 104.1854,
      "latitude": 35.8517,
      "province": "天津市",
      "city": "天津市",
      "district": "宁河区",
      "town_type": "镇",
      "population": null,
      "area_km2": null,
      "aliases": null,
      "data_source": "generated_sample",
      "data_quality": 0.7
    },
    {
      "code": "120117003",
      "name": "新城镇",
      "parent_code": "120117",
      "parent_name": "宁河区",
      "level": 4,
      "longitude": 104.20540000000001,
      "latitude": 35.8717,
      "province": "天津市",
      "city": "天津市",
      "district": "宁河区",
      "town_type": "镇",
      "population": null,
      "area_km2": null,
      "aliases": null,
      "data_source": "generated_sample",
      "data_quality": 0.7
    },
    {
      "code": "120115002",
      "name": "中心镇",
      "parent_code": "120115",
      "parent_name": "宝坻区",
      "level": 4,
      "longitude": 104.1954,
      "latitude": 35.8617,
      "province": "天津市",
      "city": "天津市",
      "district": "宝坻区",
      "town_type": "镇",
      "population": null,
      "area_km2": null,
      "aliases": null,
      "data_source": "generated_sample",
      "data_quality": 0.7
    },
    {
      "code": "120115001",
      "name": "城关镇",
      "parent_code": "120115",
      "parent_name": "宝坻区",
      "level": 4,
      "longitude": 104.1854,
      "latitude": 35.8517,
      "province": "天津市",
      "city": "天津市",
      "district": "宝坻区",
      "town_type": "镇",
      "population": null,
      "area_km2": null,
      "aliases": null,
      "data_source": "generated_sample",
      "data_quality": 0.7
    },
    {
      "code": "120115003",
      "name": "新城镇",
      "parent_code": "120115",
      "parent_name": "宝坻区",
      "level": 4,
      "longitude": 104.20540000000001,
      "latitude": 35.8717,
      "province": "天津市",
      "city": "天津市",
      "district": "宝坻区",
      "town_type": "镇",
      "population": null,
      "area_km2": null,
      "aliases": null,
      "data_source": "generated_sample",
      "data_quality": 0.7
    },
    {
      "code": "120114002",
      "name": "中心镇",
      "parent_code": "120114",
      "parent_name": "武清区",
      "level": 4,
      "longitude": 104.1954,
      "latitude": 35.8617,
      "province": "天津市",
      "city": "天津市",
      "district": "武清区",
      "town_type": "镇",
      "population": null,
      "area_km2": null,
      "aliases": null,
      "data_source": "generated_sample",
      "data_quality": 0.7
    },
    {
      "code": "120114001",
      "name": "城关镇",
      "parent_code": "120114",
      "parent_name": "武清区",
      "level": 4,
      "longitude": 104.1854,
      "latitude": 35.8517,
      "province": "天津市",
      "city": "天津市",
      "district": "武清区",
      "town_type": "镇",
      "population": null,
      "area_km2": null,
      "aliases": null,
      "data_source": "generated_sample",
      "data_quality": 0.7
    },
    {
      "code": "120114003",
      "name": "新城镇",
      "parent_code": "120114",
      "parent_name": "武清区",
      "level": 4,
      "longitude": 104.20540000000001,
      "latitude": 35.8717,
      "province": "天津市",
      "city": "天津市",
      "district": "武清区",
      "town_type": "镇",
      "population": null,
      "area_km2": null,
      "aliases": null,
      "data_source": "generated_sample",
      "data_quality": 0.7
    },
    {
      "code": "120102002",
      "name": "中心镇",
      "parent_code": "120102",
      "parent_name": "河东区",
      "level": 4,
      "longitude": 104.1954,
      "latitude": 35.8617,
      "province": "天津市",
      "city": "天津市",
      "district": "河东区",
      "town_type": "镇",
      "population": null,
      "area_km2": null,
      "aliases": null,
      "data_source": "generated_sample",
      "data_quality": 0.7
    },
    {
      "code": "120102001",
      "name": "城关镇",
      "parent_code": "120102",
      "parent_name": "河东区",
      "level": 4,
      "longitude": 104.1854,
      "latitude": 35.8517,
      "province": "天津市",
      "city": "天津市",
      "district": "河东区",
      "town_type": "镇",
      "population": null,
      "area_km2": null,
      "aliases": null,
      "data_source": "generated_sample",
      "data_quality": 0.7
    },
    {
      "code": "120102003",
      "name": "新城镇",
      "parent_code": "120102",
      "parent_name": "河东区",
      "level": 4,
      "longitude": 104.20540000000001,
      "latitude": 35.8717,
      "province": "天津市",
      "city": "天津市",
      "district": "河东区",
      "town_type": "镇",
      "population": null,
      "area_km2": null,
      "aliases": null,
      "data_source": "generated_sample",
      "data_quality": 0.7
    },
    {
      "code": "120105002",
      "name": "中心镇",
      "parent_code": "120105",
      "parent_name": "河北区",
      "level": 4,
      "longitude": 104.1954,
      "latitude": 35.8617,
      "province": "天津市",
      "city": "天津市",
      "district": "河北区",
      "town_type": "镇",
      "population": null,
      "area_km2": null,
      "aliases": null,
      "data_source": "generated_sample",
      "data_quality": 0.7
    },
    {
      "code": "120105001",
      "name": "城关镇",
      "parent_code": "120105",
      "parent_name": "河北区",
      "level": 4,
      "longitude": 104.1854,
      "latitude": 35.8517,
      "province": "天津市",
      "city": "天津市",
      "district": "河北区",
      "town_type": "镇",
      "population": null,
      "area_km2": null,
      "aliases": null,
      "data_source": "generated_sample",
      "data_quality": 0.7
    },
    {
      "code": "120105003",
      "name": "新城镇",
      "parent_code": "120105",
      "parent_name": "河北区",
      "level": 4,
      "longitude": 104.20540000000001,
      "latitude": 35.8717,
      "province": "天津市",
      "city": "天津市",
      "district": "河北区",
      "town_type": "镇",
      "population": null,
      "area_km2": null,
      "aliases": null,
      "data_source": "generated_sample",
      "data_quality": 0.7
    },
    {
      "code": "120103002",
      "name": "中心镇",
      "parent_code": "120103",
      "parent_name": "河西区",
      "level": 4,
      "longitude": 117.2235,
      "latitude": 39.1097,
      "province": "天津市",
      "city": "天津市",
      "district": "河西区",
      "town_type": "镇",
      "population": null,
      "area_km2": null,
      "aliases": null,
      "data_source": "generated_sample",
      "data_quality": 0.7
    },
    {
      "code": "120103001",
      "name": "城关镇",
      "parent_code": "120103",
      "parent_name": "河西区",
      "level": 4,
      "longitude": 117.2135,
      "latitude": 39.0997,
      "province": "天津市",
      "city": "天津市",
      "district": "河西区",
      "town_type": "镇",
      "population": null,
      "area_km2": null,
      "aliases": null,
      "data_source": "generated_sample",
      "data_quality": 0.7
    },
    {
      "code": "120103003",
      "name": "新城镇",
      "parent_code": "120103",
      "parent_name": "河西区",
      "level": 4,
      "longitude": 117.2335,
      "latitude": 39.119699999999995,
      "province": "天津市",
      "city": "天津市",
      "district": "河西区",
      "town_type": "镇",
      "population": null,
      "area_km2": null,
      "aliases": null,
      "data_source": "generated_sample",
      "data_quality": 0.7
    },
    {
      "code": "120112002",
      "name": "中心镇",
      "parent_code": "120112",
      "parent_name": "津南区",
      "level": 4,
      "longitude": 104.1954,
      "latitude": 35.8617,
      "province": "天津市",
      "city": "天津市",
      "district": "津南区",
      "town_type": "镇",
      "population": null,
      "area_km2": null,
      "aliases": null,
      "data_source": "generated_sample",
      "data_quality": 0.7
    },
    {
      "code": "120112001",
      "name": "城关镇",
      "parent_code": "120112",
      "parent_name": "津南区",
      "level": 4,
      "longitude": 104.1854,
      "latitude": 35.8517,
      "province": "天津市",
      "city": "天津市",
      "district": "津南区",
      "town_type": "镇",
      "population": null,
      "area_km2": null,
      "aliases": null,
      "data_source": "generated_sample",
      "data_quality": 0.7
    },
    {
      "code": "120112003",
      "name": "新城镇",
      "parent_code": "120112",
      "parent_name": "津南区",
      "level": 4,
      "longitude": 104.20540000000001,
      "latitude": 35.8717,
      "province": "天津市",
      "city": "天津市",
      "district": "津南区",
      "town_type": "镇",
      "population": null,
      "area_km2": null,
      "aliases": null,
      "data_source": "generated_sample",
      "data_quality": 0.7
    },
    {
      "code": "120116002",
      "name": "中心镇",
      "parent_code": "120116",
      "parent_name": "滨海新区",
      "level": 4,
      "longitude": 104.1954,
      "latitude": 35.8617,
      "province": "天津市",
      "city": "天津市",
      "district": "滨海新区",
      "town_type": "镇",
      "population": null,
      "area_km2": null,
      "aliases": null,
      "data_source": "generated_sample",
      "data_quality": 0.7
    },
    {
      "code": "120116001",
      "name": "城关镇",
      "parent_code": "120116",
      "parent_name": "滨海新区",
      "level": 4,
      "longitude": 104.1854,
      "latitude": 35.8517,
      "province": "天津市",
      "city": "天津市",
      "district": "滨海新区",
      "town_type": "镇",
      "population": null,
      "area_km2": null,
      "aliases": null,
      "data_source": "generated_sample",
      "data_quality": 0.7
    },
    {
      "code": "120116003",
      "name": "新城镇",
      "parent_code": "120116",
      "parent_name": "滨海新区",
      "level": 4,
      "longitude": 104.20540000000001,
      "latitude": 35.8717,
      "province": "天津市",
      "city": "天津市",
      "district": "滨海新区",
      "town_type": "镇",
      "population": null,
      "area_km2": null,
      "aliases": null,
      "data_source": "generated_sample",
      "data_quality": 0.7
    },
    {
      "code": "120106002",
      "name": "中心镇",
      "parent_code": "120106",
      "parent_name": "红桥区",
      "level": 4,
      "longitude": 104.1954,
      "latitude": 35.8617,
      "province": "天津市",
      "city": "天津市",
      "district": "红桥区",
      "town_type": "镇",
      "population": null,
      "area_km2": null,
      "aliases": null,
      "data_source": "generated_sample",
      "data_quality": 0.7
    },
    {
      "code": "120106001",
      "name": "城关镇",
      "parent_code": "120106",
      "parent_name": "红桥区",
      "level": 4,
      "longitude": 104.1854,
      "latitude": 35.8517,
      "province": "天津市",
      "city": "天津市",
      "district": "红桥区",
      "town_type": "镇",
      "population": null,
      "area_km2": null,
      "aliases": null,
      "data_source": "generated_sample",
      "data_quality": 0.7
    },
    {
      "code": "120106003",
      "name": "新城镇",
      "parent_code": "120106",
      "parent_name": "红桥区",
      "level": 4,
      "longitude": 104.20540000000001,
      "latitude": 35.8717,
      "province": "天津市",
      "city": "天津市",
      "district": "红桥区",
      "town_type": "镇",
      "population": null,
      "area_km2": null,
      "aliases": null,
      "data_source": "generated_sample",
      "data_quality": 0.7
    },
    {
      "code": "120119002",
      "name": "中心镇",
      "parent_code": "120119",
      "parent_name": "蓟州区",
      "level": 4,
      "longitude": 104.1954,
      "latitude": 35.8617,
      "province": "天津市",
      "city": "天津市",
      "district": "蓟州区",
      "town_type": "镇",
      "population": null,
      "area_km2": null,
      "aliases": null,
      "data_source": "generated_sample",
      "data_quality": 0.7
    },
    {
      "code": "120119001",
      "name": "城关镇",
      "parent_code": "120119",
      "parent_name": "蓟州区",
      "level": 4,
      "longitude": 104.1854,
      "latitude": 35.8517,
      "province": "天津市",
      "city": "天津市",
      "district": "蓟州区",
      "town_type": "镇",
      "population": null,
      "area_km2": null,
      "aliases": null,
      "data_source": "generated_sample",
      "data_quality": 0.7
    },
    {
      "code": "120119003",
      "name": "新城镇",
      "parent_code": "120119",
      "parent_name": "蓟州区",
      "level": 4,
      "longitude": 104.20540000000001,
      "latitude": 35.8717,
      "province": "天津市",
      "city": "天津市",
      "district": "蓟州区",
      "town_type": "镇",
      "population": null,
      "area_km2": null,
      "aliases": null,
      "data_source": "generated_sample",
      "data_quality": 0.7
    },
    {
      "code": "120111002",
      "name": "中心镇",
      "parent_code": "120111",
      "parent_name": "西青区",
      "level": 4,
      "longitude": 104.1954,
      "latitude": 35.8617,
      "province": "天津市",
      "city": "天津市",
      "district": "西青区",
      "town_type": "镇",
      "population": null,
      "area_km2": null,
      "aliases": null,
      "data_source": "generated_sample",
      "data_quality": 0.7
    },
    {
      "code": "120111001",
      "name": "城关镇",
      "parent_code": "120111",
      "parent_name": "西青区",
      "level": 4,
      "longitude": 104.1854,
      "latitude": 35.8517,
      "province": "天津市",
      "city": "天津市",
      "district": "西青区",
      "town_type": "镇",
      "population": null,
      "area_km2": null,
      "aliases": null,
      "data_source": "generated_sample",
      "data_quality": 0.7
    },
    {
      "code": "120111003",
      "name": "新城镇",
      "parent_code": "120111",
      "parent_name": "西青区",
      "level": 4,
      "longitude": 104.20540000000001,
      "latitude": 35.8717,
      "province": "天津市",
      "city": "天津市",
      "district": "西青区",
      "town_type": "镇",
      "population": null,
      "area_km2": null,
      "aliases": null,
      "data_source": "generated_sample",
      "data_quality": 0.7
    },
    {
      "code": "120118002",
      "name": "中心镇",
      "parent_code": "120118",
      "parent_name": "静海区",
      "level": 4,
      "longitude": 104.1954,
      "latitude": 35.8617,
      "province": "天津市",
      "city": "天津市",
      "district": "静海区",
      "town_type": "镇",
      "population": null,
      "area_km2": null,
      "aliases": null,
      "data_source": "generated_sample",
      "data_quality": 0.7
    },
    {
      "code": "120118001",
      "name": "城关镇",
      "parent_code": "120118",
      "parent_name": "静海区",
      "level": 4,
      "longitude": 104.1854,
      "latitude": 35.8517,
      "province": "天津市",
      "city": "天津市",
      "district": "静海区",
      "town_type": "镇",
      "population": null,
      "area_km2": null,
      "aliases": null,
      "data_source": "generated_sample",
      "data_quality": 0.7
    },
    {
      "code": "120118003",
      "name": "新城镇",
      "parent_code": "120118",
      "parent_name": "静海区",
      "level": 4,
      "longitude": 104.20540000000001,
      "latitude": 35.8717,
      "province": "天津市",
      "city": "天津市",
      "district": "静海区",
      "town_type": "镇",
      "population": null,
      "area_km2": null,
      "aliases": null,
      "data_source": "generated_sample",
      "data_quality": 0.7
    },
    {
      "code": "130121002",
      "name": "中心镇",
      "parent_code": "130121",
      "parent_name": "井陉县",
      "level": 4,
      "longitude": 104.1954,
      "latitude": 35.8617,
      "province": "河北省",
      "city": "石家庄市",
      "district": "井陉县",
      "town_type": "镇",
      "population": null,
      "area_km2": null,
      "aliases": null,
      "data_source": "generated_sample",
      "data_quality": 0.7
    },
    {
      "code": "130121001",
      "name": "城关镇",
      "parent_code": "130121",
      "parent_name": "井陉县",
      "level": 4,
      "longitude": 104.1854,
      "latitude": 35.8517,
      "province": "河北省",
      "city": "石家庄市",
      "district": "井陉县",
      "town_type": "镇",
      "population": null,
      "area_km2": null,
      "aliases": null,
      "data_source": "generated_sample",
      "data_quality": 0.7
    },
    {
      "code": "130121003",
      "name": "新城镇",
      "parent_code": "130121",
      "parent_name": "井陉县",
      "level": 4,
      "longitude": 104.20540000000001,
      "latitude": 35.8717,
      "province": "河北省",
      "city": "石家庄市",
      "district": "井陉县",
      "town_type": "镇",
      "population": null,
      "area_km2": null,
      "aliases": null,
      "data_source": "generated_sample",
      "data_quality": 0.7
    },
    {
      "code": "130107002",
      "name": "中心镇",
      "parent_code": "130107",
      "parent_name": "井陉矿区",
      "level": 4,
      "longitude": 104.1954,
      "latitude": 35.8617,
      "province": "河北省",
      "city": "石家庄市",
      "district": "井陉矿区",
      "town_type": "镇",
      "population": null,
      "area_km2": null,
      "aliases": null,
      "data_source": "generated_sample",
      "data_quality": 0.7
    },
    {
      "code": "130107001",
      "name": "城关镇",
      "parent_code": "130107",
      "parent_name": "井陉矿区",
      "level": 4,
      "longitude": 104.1854,
      "latitude": 35.8517,
      "province": "河北省",
      "city": "石家庄市",
      "district": "井陉矿区",
      "town_type": "镇",
      "population": null,
      "area_km2": null,
      "aliases": null,
      "data_source": "generated_sample",
      "data_quality": 0.7
    },
    {
      "code": "130107003",
      "name": "新城镇",
      "parent_code": "130107",
      "parent_name": "井陉矿区",
      "level": 4,
      "longitude": 104.20540000000001,
      "latitude": 35.8717,
      "province": "河北省",
      "city": "石家庄市",
      "district": "井陉矿区",
      "town_type": "镇",
      "population": null,
      "area_km2": null,
      "aliases": null,
      "data_source": "generated_sample",
      "data_quality": 0.7
    },
    {
      "code": "130132002",
      "name": "中心镇",
      "parent_code": "130132",
      "parent_name": "元氏县",
      "level": 4,
      "longitude": 104.1954,
      "latitude": 35.8617,
      "province": "河北省",
      "city": "石家庄市",
      "district": "元氏县",
      "town_type": "镇",
      "population": null,
      "area_km2": null,
      "aliases": null,
      "data_source": "generated_sample",
      "data_quality": 0.7
    },
    {
      "code": "130132001",
      "name": "城关镇",
      "parent_code": "130132",
      "parent_name": "元氏县",
      "level": 4,
      "longitude": 104.1854,
      "latitude": 35.8517,
      "province": "河北省",
      "city": "石家庄市",
      "district": "元氏县",
      "town_type": "镇",
      "population": null,
      "area_km2": null,
      "aliases": null,
      "data_source": "generated_sample",
      "data_quality": 0.7
    },
    {
      "code": "130132003",
      "name": "新城镇",
      "parent_code": "130132",
      "parent_name": "元氏县",
      "level": 4,
      "longitude": 104.20540000000001,
      "latitude": 35.8717,
      "province": "河北省",
      "city": "石家庄市",
      "district": "元氏县",
      "town_type": "镇",
      "population": null,
      "area_km2": null,
      "aliases": null,
      "data_source": "generated_sample",
      "data_quality": 0.7
    },
    {
      "code": "130131002",
      "name": "中心镇",
      "parent_code": "130131",
      "parent_name": "平山县",
      "level": 4,
      "longitude": 104.1954,
      "latitude": 35.8617,
      "province": "河北省",
      "city": "石家庄市",
      "district": "平山县",
      "town_type": "镇",
      "population": null,
      "area_km2": null,
      "aliases": null,
      "data_source": "generated_sample",
      "data_quality": 0.7
    },
    {
      "code": "130131001",
      "name": "城关镇",
      "parent_code": "130131",
      "parent_name": "平山县",
      "level": 4,
      "longitude": 104.1854,
      "latitude": 35.8517,
      "province": "河北省",
      "city": "石家庄市",
      "district": "平山县",
      "town_type": "镇",
      "population": null,
      "area_km2": null,
      "aliases": null,
      "data_source": "generated_sample",
      "data_quality": 0.7
    },
    {
      "code": "130131003",
      "name": "新城镇",
      "parent_code": "130131",
      "parent_name": "平山县",
      "level": 4,
      "longitude": 104.20540000000001,
      "latitude": 35.8717,
      "province": "河北省",
      "city": "石家庄市",
      "district": "平山县",
      "town_type": "镇",
      "population": null,
      "area_km2": null,
      "aliases": null,
      "data_source": "generated_sample",
      "data_quality": 0.7
    },
    {
      "code": "130105002",
      "name": "中心镇",
      "parent_code": "130105",
      "parent_name": "新华区",
      "level": 4,
      "longitude": 104.1954,
      "latitude": 35.8617,
      "province": "河北省",
      "city": "石家庄市",
      "district": "新华区",
      "town_type": "镇",
      "population": null,
      "area_km2": null,
      "aliases": null,
      "data_source": "generated_sample",
      "data_quality": 0.7
    },
    {
      "code": "130105001",
      "name": "城关镇",
      "parent_code": "130105",
      "parent_name": "新华区",
      "level": 4,
      "longitude": 104.1854,
      "latitude": 35.8517,
      "province": "河北省",
      "city": "石家庄市",
      "district": "新华区",
      "town_type": "镇",
      "population": null,
      "area_km2": null,
      "aliases": null,
      "data_source": "generated_sample",
      "data_quality": 0.7
    },
    {
      "code": "130105003",
      "name": "新城镇",
      "parent_code": "130105",
      "parent_name": "新华区",
      "level": 4,
      "longitude": 104.20540000000001,
      "latitude": 35.8717,
      "province": "河北省",
      "city": "石家庄市",
      "district": "新华区",
      "town_type": "镇",
      "population": null,
      "area_km2": null,
      "aliases": null,
      "data_source": "generated_sample",
      "data_quality": 0.7
    },
    {
      "code": "130130002",
      "name": "中心镇",
      "parent_code": "130130",
      "parent_name": "无极县",
      "level": 4,
      "longitude": 104.1954,
      "latitude": 35.8617,
      "province": "河北省",
      "city": "石家庄市",
      "district": "无极县",
      "town_type": "镇",
      "population": null,
      "area_km2": null,
      "aliases": null,
      "data_source": "generated_sample",
      "data_quality": 0.7
    },
    {
      "code": "130130001",
      "name": "城关镇",
      "parent_code": "130130",
      "parent_name": "无极县",
      "level": 4,
      "longitude": 104.1854,
      "latitude": 35.8517,
      "province": "河北省",
      "city": "石家庄市",
      "district": "无极县",
      "town_type": "镇",
      "population": null,
      "area_km2": null,
      "aliases": null,
      "data_source": "generated_sample",
      "data_quality": 0.7
    },
    {
      "code": "130130003",
      "name": "新城镇",
      "parent_code": "130130",
      "parent_name": "无极县",
      "level": 4,
      "longitude": 104.20540000000001,
      "latitude": 35.8717,
      "province": "河北省",
      "city": "石家庄市",
      "district": "无极县",
      "town_type": "镇",
      "population": null,
      "area_km2": null,
      "aliases": null,
      "data_source": "generated_sample",
      "data_quality": 0.7
    },
    {
      "code": "130111002",
      "name": "中心镇",
      "parent_code": "130111",
      "parent_name": "栾城区",
      "level": 4,
      "longitude": 104.1954,
      "latitude": 35.8617,
      "province": "河北省",
      "city": "石家庄市",
      "district": "栾城区",
      "town_type": "镇",
      "population": null,
      "area_km2": null,
      "aliases": null,
      "data_source": "generated_sample",
      "data_quality": 0.7
    },
    {
      "code": "130111001",
      "name": "城关镇",
      "parent_code": "130111",
      "parent_name": "栾城区",
      "level": 4,
      "longitude": 104.1854,
      "latitude": 35.8517,
      "province": "河北省",
      "city": "石家庄市",
      "district": "栾城区",
      "town_type": "镇",
      "population": null,
      "area_km2": null,
      "aliases": null,
      "data_source": "generated_sample",
      "data_quality": 0.7
    },
    {
      "code": "130111003",
      "name": "新城镇",
      "parent_code": "130111",
      "parent_name": "栾城区",
      "level": 4,
      "longitude": 104.20540000000001,
      "latitude": 35.8717,
      "province": "河北省",
      "city": "石家庄市",
      "district": "栾城区",
      "town_type": "镇",
      "population": null,
      "area_km2": null,
      "aliases": null,
      "data_source": "generated_sample",
      "data_quality": 0.7
    },
    {
      "code": "130104002",
      "name": "中心镇",
      "parent_code": "130104",
      "parent_name": "桥西区",
      "level": 4,
      "longitude": 104.1954,
      "latitude": 35.8617,
      "province": "河北省",
      "city": "石家庄市",
      "district": "桥西区",
      "town_type": "镇",
      "population": null,
      "area_km2": null,
      "aliases": null,
      "data_source": "generated_sample",
      "data_quality": 0.7
    },
    {
      "code": "130104001",
      "name": "城关镇",
      "parent_code": "130104",
      "parent_name": "桥西区",
      "level": 4,
      "longitude": 104.1854,
      "latitude": 35.8517,
      "province": "河北省",
      "city": "石家庄市",
      "district": "桥西区",
      "town_type": "镇",
      "population": null,
      "area_km2": null,
      "aliases": null,
      "data_source": "generated_sample",
      "data_quality": 0.7
    },
    {
      "code": "130104003",
      "name": "新城镇",
      "parent_code": "130104",
      "parent_name": "桥西区",
      "level": 4,
      "longitude": 104.20540000000001,
      "latitude": 35.8717,
      "province": "河北省",
      "city": "石家庄市",
      "district": "桥西区",
      "town_type": "镇",
      "population": null,
      "area_km2": null,
      "aliases": null,
      "data_source": "generated_sample",
      "data_quality": 0.7
    },
    {
      "code": "130123002",
      "name": "中心镇",
      "parent_code": "130123",
      "parent_name": "正定县",
      "level": 4,
      "longitude": 104.1954,
      "latitude": 35.8617,
      "province": "河北省",
      "city": "石家庄市",
      "district": "正定县",
      "town_type": "镇",
      "population": null,
      "area_km2": null,
      "aliases": null,
      "data_source": "generated_sample",
      "data_quality": 0.7
    },
    {
      "code": "130123001",
      "name": "城关镇",
      "parent_code": "130123",
      "parent_name": "正定县",
      "level": 4,
      "longitude": 104.1854,
      "latitude": 35.8517,
      "province": "河北省",
      "city": "石家庄市",
      "district": "正定县",
      "town_type": "镇",
      "population": null,
      "area_km2": null,
      "aliases": null,
      "data_source": "generated_sample",
      "data_quality": 0.7
    },
    {
      "code": "130123003",
      "name": "新城镇",
      "parent_code": "130123",
      "parent_name": "正定县",
      "level": 4,
      "longitude": 104.20540000000001,
      "latitude": 35.8717,
      "province": "河北省",
      "city": "石家庄市",
      "district": "正定县",
      "town_type": "镇",
      "population": null,
      "area_km2": null,
      "aliases": null,
      "data_source": "generated_sample",
      "data_quality": 0.7
    },
    {
      "code": "130128002",
      "name": "中心镇",
      "parent_code": "130128",
      "parent_name": "深泽县",
      "level": 4,
      "longitude": 104.1954,
      "latitude": 35.8617,
      "province": "河北省",
      "city": "石家庄市",
      "district": "深泽县",
      "town_type": "镇",
      "population": null,
      "area_km2": null,
      "aliases": null,
      "data_source": "generated_sample",
      "data_quality": 0.7
    },
    {
      "code": "130128001",
      "name": "城关镇",
      "parent_code": "130128",
      "parent_name": "深泽县",
      "level": 4,
      "longitude": 104.1854,
      "latitude": 35.8517,
      "province": "河北省",
      "city": "石家庄市",
      "district": "深泽县",
      "town_type": "镇",
      "population": null,
      "area_km2": null,
      "aliases": null,
      "data_source": "generated_sample",
      "data_quality": 0.7
    },
    {
      "code": "130128003",
      "name": "新城镇",
      "parent_code": "130128",
      "parent_name": "深泽县",
      "level": 4,
      "longitude": 104.20540000000001,
      "latitude": 35.8717,
      "province": "河北省",
      "city": "石家庄市",
      "district": "深泽县",
      "town_type": "镇",
      "population": null,
      "area_km2": null,
      "aliases": null,
      "data_source": "generated_sample",
      "data_quality": 0.7
    },
    {
      "code": "130126002",
      "name": "中心镇",
      "parent_code": "130126",
      "parent_name": "灵寿县",
      "level": 4,
      "longitude": 104.1954,
      "latitude": 35.8617,
      "province": "河北省",
      "city": "石家庄市",
      "district": "灵寿县",
      "town_type": "镇",
      "population": null,
      "area_km2": null,
      "aliases": null,
      "data_source": "generated_sample",
      "data_quality": 0.7
    },
    {
      "code": "130126001",
      "name": "城关镇",
      "parent_code": "130126",
      "parent_name": "灵寿县",
      "level": 4,
      "longitude": 104.1854,
      "latitude": 35.8517,
      "province": "河北省",
      "city": "石家庄市",
      "district": "灵寿县",
      "town_type": "镇",
      "population": null,
      "area_km2": null,
      "aliases": null,
      "data_source": "generated_sample",
      "data_quality": 0.7
    },
    {
      "code": "130126003",
      "name": "新城镇",
      "parent_code": "130126",
      "parent_name": "灵寿县",
      "level": 4,
      "longitude": 104.20540000000001,
      "latitude": 35.8717,
      "province": "河北省",
      "city": "石家庄市",
      "district": "灵寿县",
      "town_type": "镇",
      "population": null,
      "area_km2": null,
      "aliases": null,
      "data_source": "generated_sample",
      "data_quality": 0.7
    },
    {
      "code": "130109002",
      "name": "中心镇",
      "parent_code": "130109",
      "parent_name": "藁城区",
      "level": 4,
      "longitude": 104.1954,
      "latitude": 35.8617,
      "province": "河北省",
      "city": "石家庄市",
      "district": "藁城区",
      "town_type": "镇",
      "population": null,
      "area_km2": null,
      "aliases": null,
      "data_source": "generated_sample",
      "data_quality": 0.7
    },
    {
      "code": "130109001",
      "name": "城关镇",
      "parent_code": "130109",
      "parent_name": "藁城区",
      "level": 4,
      "longitude": 104.1854,
      "latitude": 35.8517,
      "province": "河北省",
      "city": "石家庄市",
      "district": "藁城区",
      "town_type": "镇",
      "population": null,
      "area_km2": null,
      "aliases": null,
      "data_source": "generated_sample",
      "data_quality": 0.7
    },
    {
      "code": "130109003",
      "name": "新城镇",
      "parent_code": "130109",
      "parent_name": "藁城区",
      "level": 4,
      "longitude": 104.20540000000001,
      "latitude": 35.8717,
      "province": "河北省",
      "city": "石家庄市",
      "district": "藁城区",
      "town_type": "镇",
      "population": null,
      "area_km2": null,
      "aliases": null,
      "data_source": "generated_sample",
      "data_quality": 0.7
    },
    {
      "code": "130125002",
      "name": "中心镇",
      "parent_code": "130125",
      "parent_name": "行唐县",
      "level": 4,
      "longitude": 104.1954,
      "latitude": 35.8617,
      "province": "河北省",
      "city": "石家庄市",
      "district": "行唐县",
      "town_type": "镇",
      "population": null,
      "area_km2": null,
      "aliases": null,
      "data_source": "generated_sample",
      "data_quality": 0.7
    },
    {
      "code": "130125001",
      "name": "城关镇",
      "parent_code": "130125",
      "parent_name": "行唐县",
      "level": 4,
      "longitude": 104.1854,
      "latitude": 35.8517,
      "province": "河北省",
      "city": "石家庄市",
      "district": "行唐县",
      "town_type": "镇",
      "population": null,
      "area_km2": null,
      "aliases": null,
      "data_source": "generated_sample",
      "data_quality": 0.7
    },
    {
      "code": "130125003",
      "name": "新城镇",
      "parent_code": "130125",
      "parent_name": "行唐县",
      "level": 4,
      "longitude": 104.20540000000001,
      "latitude": 35.8717,
      "province": "河北省",
      "city": "石家庄市",
      "district": "行唐县",
      "town_type": "镇",
      "population": null,
      "area_km2": null,
      "aliases": null,
      "data_source": "generated_sample",
      "data_quality": 0.7
    },
    {
      "code": "130108002",
      "name": "中心镇",
      "parent_code": "130108",
      "parent_name": "裕华区",
      "level": 4,
      "longitude": 104.1954,
      "latitude": 35.8617,
      "province": "河北省",
      "city": "石家庄市",
      "district": "裕华区",
      "town_type": "镇",
      "population": null,
      "area_km2": null,
      "aliases": null,
      "data_source": "generated_sample",
      "data_quality": 0.7
    },
    {
      "code": "130108001",
      "name": "城关镇",
      "parent_code": "130108",
      "parent_name": "裕华区",
      "level": 4,
      "longitude": 104.1854,
      "latitude": 35.8517,
      "province": "河北省",
      "city": "石家庄市",
      "district": "裕华区",
      "town_type": "镇",
      "population": null,
      "area_km2": null,
      "aliases": null,
      "data_source": "generated_sample",
      "data_quality": 0.7
    },
    {
      "code": "130108003",
      "name": "新城镇",
      "parent_code": "130108",
      "parent_name": "裕华区",
      "level": 4,
      "longitude": 104.20540000000001,
      "latitude": 35.8717,
      "province": "河北省",
      "city": "石家庄市",
      "district": "裕华区",
      "town_type": "镇",
      "population": null,
      "area_km2": null,
      "aliases": null,
      "data_source": "generated_sample",
      "data_quality": 0.7
    },
    {
      "code": "130129002",
      "name": "中心镇",
      "parent_code": "130129",
      "parent_name": "赞皇县",
      "level": 4,
      "longitude": 104.1954,
      "latitude": 35.8617,
      "province": "河北省",
      "city": "石家庄市",
      "district": "赞皇县",
      "town_type": "镇",
      "population": null,
      "area_km2": null,
      "aliases": null,
      "data_source": "generated_sample",
      "data_quality": 0.7
    },
    {
      "code": "130129001",
      "name": "城关镇",
      "parent_code": "130129",
      "parent_name": "赞皇县",
      "level": 4,
      "longitude": 104.1854,
      "latitude": 35.8517,
      "province": "河北省",
      "city": "石家庄市",
      "district": "赞皇县",
      "town_type": "镇",
      "population": null,
      "area_km2": null,
      "aliases": null,
      "data_source": "generated_sample",
      "data_quality": 0.7
    },
    {
      "code": "130129003",
      "name": "新城镇",
      "parent_code": "130129",
      "parent_name": "赞皇县",
      "level": 4,
      "longitude": 104.20540000000001,
      "latitude": 35.8717,
      "province": "河北省",
      "city": "石家庄市",
      "district": "赞皇县",
      "town_type": "镇",
      "population": null,
      "area_km2": null,
      "aliases": null,
      "data_source": "generated_sample",
      "data_quality": 0.7
    },
    {
      "code": "130102002",
      "name": "中心镇",
      "parent_code": "130102",
      "parent_name": "长安区",
      "level": 4,
      "longitude": 104.1954,
      "latitude": 35.8617,
      "province": "河北省",
      "city": "石家庄市",
      "district": "长安区",
      "town_type": "镇",
      "population": null,
      "area_km2": null,
      "aliases": null,
      "data_source": "generated_sample",
      "data_quality": 0.7
    },
    {
      "code": "130102001",
      "name": "城关镇",
      "parent_code": "130102",
      "parent_name": "长安区",
      "level": 4,
      "longitude": 104.1854,
      "latitude": 35.8517,
      "province": "河北省",
      "city": "石家庄市",
      "district": "长安区",
      "town_type": "镇",
      "population": null,
      "area_km2": null,
      "aliases": null,
      "data_source": "generated_sample",
      "data_quality": 0.7
    },
    {
      "code": "130102003",
      "name": "新城镇",
      "parent_code": "130102",
      "parent_name": "长安区",
      "level": 4,
      "longitude": 104.20540000000001,
      "latitude": 35.8717,
      "province": "河北省",
      "city": "石家庄市",
      "district": "长安区",
      "town_type": "镇",
      "population": null,
      "area_km2": null,
      "aliases": null,
      "data_source": "generated_sample",
      "data_quality": 0.7
    },
    {
      "code": "130127002",
      "name": "中心镇",
      "parent_code": "130127",
      "parent_name": "高邑县",
      "level": 4,
      "longitude": 104.1954,
      "latitude": 35.8617,
      "province": "河北省",
      "city": "石家庄市",
      "district": "高邑县",
      "town_type": "镇",
      "population": null,
      "area_km2": null,
      "aliases": null,
      "data_source": "generated_sample",
      "data_quality": 0.7
    },
    {
      "code": "130127001",
      "name": "城关镇",
      "parent_code": "130127",
      "parent_name": "高邑县",
      "level": 4,
      "longitude": 104.1854,
      "latitude": 35.8517,
      "province": "河北省",
      "city": "石家庄市",
      "district": "高邑县",
      "town_type": "镇",
      "population": null,
      "area_km2": null,
      "aliases": null,
      "data_source": "generated_sample",
      "data_quality": 0.7
    },
    {
      "code": "130127003",
      "name": "新城镇",
      "parent_code": "130127",
      "parent_name": "高邑县",
      "level": 4,
      "longitude": 104.20540000000001,
      "latitude": 35.8717,
      "province": "河北省",
      "city": "石家庄市",
      "district": "高邑县",
      "town_type": "镇",
      "population": null,
      "area_km2": null,
      "aliases": null,
      "data_source": "generated_sample",
      "data_quality": 0.7
    },
    {
      "code": "130110002",
      "name": "中心镇",
      "parent_code": "130110",
      "parent_name": "鹿泉区",
      "level": 4,
      "longitude": 104.1954,
      "latitude": 35.8617,
      "province": "河北省",
      "city": "石家庄市",
      "district": "鹿泉区",
      "town_type": "镇",
      "population": null,
      "area_km2": null,
      "aliases": null,
      "data_source": "generated_sample",
      "data_quality": 0.7
    },
    {
      "code": "130110001",
      "name": "城关镇",
      "parent_code": "130110",
      "parent_name": "鹿泉区",
      "level": 4,
      "longitude": 104.1854,
      "latitude": 35.8517,
      "province": "河北省",
      "city": "石家庄市",
      "district": "鹿泉区",
      "town_type": "镇",
      "population": null,
      "area_km2": null,
      "aliases": null,
      "data_source": "generated_sample",
      "data_quality": 0.7
    },
    {
      "code": "130110003",
      "name": "新城镇",
      "parent_code": "130110",
      "parent_name": "鹿泉区",
      "level": 4,
      "longitude": 104.20540000000001,
      "latitude": 35.8717,
      "province": "河北省",
      "city": "石家庄市",
      "district": "鹿泉区",
      "town_type": "镇",
      "population": null,
      "area_km2": null,
      "aliases": null,
      "data_source": "generated_sample",
      "data_quality": 0.7
    }
  ]
}